#
- name: Home
  latitude: 30.4545208
  longitude: -81.5357317
  radius: 300
  icon: mdi:home-circle
#
- name: Front Gate
  latitude: 30.458625
  longitude: -81.5312852
  radius: 150
  icon: mdi:boom-gate
#
- name: Shands Jax
  latitude: 30.3485
  longitude: -81.6644
  radius: 150
  icon: mdi:hospital
#
- name: Shands North
  latitude: 30.4843
  longitude: -81.6335
  radius: 100
  icon: mdi:hospital
#
- name: Baptist
  latitude: 30.316382
  longitude: -81.663923
  radius: 220
  icon: mdi:hospital
#
- name: Memorial
  latitude: 30.288090
  longitude: -81.6006648
  radius: 185
  icon: mdi:hospital
#
- name: Mayo
  latitude: 30.261318
  longitude: -81.442777
  radius: 480
  icon: mdi:hospital
#3
- name: St_Vincents
  latitude: 30.307462
  longitude: -81.690012
  radius: 125
  icon: mdi:hospital
#
- name: Flagler
  latitude: 29.863735
  longitude: -81.317545
  radius: 125
  icon: mdi:hospital
#
- name: Phoebe
  latitude: 31.5904507
  longitude: -84.1595808
  radius: 100
  icon: mdi:hospital
#
- name: Monroe
  latitude: 29.1751791
  longitude: -82.1390284
  radius: 100
  icon: mdi:hospital
#
- name: Tallahassee
  latitude: 30.4575458
  longitude: -84.2605853
  radius: 100
  icon: mdi:hospital
#
- name: Shopping
  latitude: 30.4776
  longitude: -81.6388
  radius: 600
  icon: mdi:shopping
#
- name: Church
  latitude: 30.476895
  longitude: -81.617430
  radius: 100
  icon: mdi:church
#
- name: Mom & Dad
  latitude: 29.102902
  longitude: -81.050993
  radius: 100
  icon: mdi:home-circle
#
# https://www.mapdevelopers.com/draw-circle-tool.php
#
# This will override the default home zone
#- name: Tidewater
#  latitude: 30.4550
#  longitude: -81.5315
#  radius: 650
#  icon: mdi:home-circle
